School Name,Region,Starting Median Salary,Mid-Career Median Salary,Mid-Career 10th Percentile Salary,Mid-Career 25th Percentile Salary,Mid-Career 75th Percentile Salary,Mid-Career 90th Percentile Salary,lat,lon
Stanford University,California,"$70,400.00","$129,000.00","$68,400.00","$93,100.00","$184,000.00","$257,000.00",37.431313849999995,-122.16936535498309
California Institute of Technology (CIT),California,"$75,500.00","$123,000.00",,"$104,000.00","$161,000.00",,,
Harvey Mudd College,California,"$71,800.00","$122,000.00",,"$96,000.00","$180,000.00",,34.10614005,-117.70872814971483
"University of California, Berkeley",California,"$59,900.00","$112,000.00","$59,500.00","$81,000.00","$149,000.00","$201,000.00",37.86865795,-122.25593425935196
Occidental College,California,"$51,900.00","$105,000.00",,"$54,800.00","$157,000.00",,34.12719495,-118.20992029989196
Cal Poly San Luis Obispo,California,"$57,200.00","$101,000.00","$55,000.00","$74,700.00","$133,000.00","$178,000.00",35.316444149999995,-120.68287617713219
University of California at Los Angeles (UCLA),California,"$52,600.00","$101,000.00","$51,300.00","$72,500.00","$139,000.00","$193,000.00",,
"University of California, San Diego (UCSD)",California,"$51,100.00","$101,000.00","$51,700.00","$75,400.00","$131,000.00","$177,000.00",32.8776277,-117.22664020888703
Pomona College,California,"$48,600.00","$101,000.00",,"$63,300.00","$161,000.00",,34.0974775,-117.71172754418944
University of Southern California (USC),California,"$54,800.00","$99,600.00","$49,700.00","$73,800.00","$140,000.00","$201,000.00",34.0627257,-118.20188823929675
"University of California, Davis",California,"$52,300.00","$99,600.00","$52,000.00","$71,600.00","$135,000.00","$202,000.00",38.5217429,-121.7522493507393
"University of California, Irvine (UCI)",California,"$48,300.00","$96,700.00","$47,800.00","$66,000.00","$123,000.00","$172,000.00",33.6487306,-117.84235249549901
San Jose State University (SJSU),California,"$53,500.00","$95,600.00","$50,700.00","$70,500.00","$122,000.00","$156,000.00",,
"University of California, Santa Barbara (UCSB)",California,"$50,500.00","$95,000.00","$51,300.00","$71,200.00","$129,000.00","$173,000.00",,
"California State University (CSU), Chico",California,"$47,400.00","$88,100.00","$46,800.00","$62,800.00","$122,000.00","$154,000.00",,
"California State University, Fullerton (CSUF)",California,"$45,700.00","$87,000.00","$45,400.00","$62,500.00","$119,000.00","$158,000.00",,
San Francisco State University (SFSU),California,"$47,300.00","$86,400.00","$45,100.00","$62,700.00","$114,000.00","$150,000.00",,
San Diego State University (SDSU),California,"$46,200.00","$85,200.00","$45,500.00","$61,800.00","$116,000.00","$158,000.00",32.7761529,-117.07330366921886
"California State University, Long Beach (CSULB)",California,"$45,100.00","$84,700.00","$47,400.00","$62,500.00","$113,000.00","$154,000.00",,
"California State University, East Bay (CSUEB)",California,"$49,200.00","$84,300.00","$46,000.00","$62,400.00","$115,000.00","$155,000.00",,
"University of California, Santa Cruz (UCSC)",California,"$44,700.00","$84,100.00","$46,100.00","$62,000.00","$121,000.00","$165,000.00",36.983657,-122.072191
"California State University, Sacramento (CSUS)",California,"$47,800.00","$82,400.00","$42,900.00","$59,600.00","$111,000.00","$154,000.00",,
"University of California, Riverside (UCR)",California,"$46,800.00","$81,300.00","$37,200.00","$59,900.00","$109,000.00","$134,000.00",33.9642567,-117.3397858271953
"California State University, Northridge (CSUN)",California,"$45,500.00","$80,400.00","$44,500.00","$57,800.00","$108,000.00","$153,000.00",,
"California State University, Dominguez Hills (CSUDH)",California,"$42,700.00","$72,100.00","$30,800.00","$47,000.00","$92,200.00","$132,000.00",,
"California State University (CSU), Stanislaus",California,"$38,000.00","$71,400.00",,"$50,500.00","$94,100.00",,,
Humboldt State University,California,"$42,600.00","$71,300.00","$36,000.00","$56,300.00","$94,400.00","$117,000.00",40.87558755,-124.07799976381143
Thomas Aquinas College,California,"$41,500.00","$67,500.00",,"$44,600.00","$93,100.00",,34.4300932,-119.0868049
Colorado School of Mines,Western,"$58,100.00","$106,000.00","$62,200.00","$87,900.00","$142,000.00","$201,000.00",39.7386338,-105.22463887724237
University of Colorado - Boulder (UCB),Western,"$47,100.00","$97,600.00","$51,600.00","$69,000.00","$128,000.00","$187,000.00",,
New Mexico Institute of Mining and Technology (New Mexico Tech),Western,"$51,000.00","$93,400.00",,"$67,400.00","$123,000.00",,,
Brigham Young University (BYU),Western,"$49,400.00","$88,600.00","$50,600.00","$68,500.00","$119,000.00","$164,000.00",40.25501105,-111.64968264312222
University of Arizona,Western,"$47,500.00","$86,100.00","$44,800.00","$61,700.00","$117,000.00","$160,000.00",33.45205165,-112.06367894217559
University of Washington (UW),Western,"$48,800.00","$85,300.00","$47,000.00","$59,800.00","$115,000.00","$149,000.00",47.6543466,-122.30806059473039
Washington State University (WSU),Western,"$45,300.00","$84,700.00","$43,600.00","$59,000.00","$113,000.00","$162,000.00",46.7337724,-117.14976069286374
University of Colorado - Denver,Western,"$46,100.00","$84,400.00","$46,400.00","$58,600.00","$105,000.00","$144,000.00",39.7428324,-105.00591517760857
Arizona State University (ASU),Western,"$47,400.00","$84,100.00","$44,600.00","$60,700.00","$114,000.00","$163,000.00",,
Oregon State University (OSU),Western,"$45,100.00","$83,300.00","$46,900.00","$64,000.00","$113,000.00","$146,000.00",44.56305595,-123.28392363395751
University of Utah,Western,"$45,400.00","$83,200.00","$43,000.00","$58,400.00","$116,000.00","$148,000.00",40.762813699999995,-111.83687191368261
"University of Nevada, Reno (UNR)",Western,"$46,500.00","$82,900.00","$41,900.00","$54,600.00","$113,000.00","$143,000.00",,
Seattle University,Western,"$48,300.00","$82,800.00","$50,600.00","$62,400.00","$110,000.00","$150,000.00",47.60950425,-122.318798295358
University of Idaho,Western,"$44,900.00","$82,000.00","$43,000.00","$56,700.00","$104,000.00","$142,000.00",46.72379775,-117.02043898436474
University of New Mexico (UNM),Western,"$41,600.00","$81,600.00","$41,800.00","$59,100.00","$105,000.00","$141,000.00",35.08663275,-106.62020940505188
University of Puget Sound,Western,"$46,600.00","$81,500.00","$48,900.00","$60,100.00","$104,000.00","$137,000.00",47.26159295,-122.48108972944726
Colorado College (CC),Western,"$38,500.00","$81,400.00",,"$43,000.00","$148,000.00",,39.9030828,-105.0385136
Reed College,Western,"$40,500.00","$81,100.00",,"$67,400.00","$101,000.00",,45.48149925,-122.63101360753458
Whitman College,Western,"$43,500.00","$80,100.00",,"$64,800.00","$111,000.00",,40.3439577,-74.6579438
New Mexico State University,Western,"$44,300.00","$79,500.00","$37,400.00","$53,800.00","$102,000.00","$131,000.00",32.2729032,-106.74349267153694
Colorado State University (CSU),Western,"$44,800.00","$79,000.00","$43,800.00","$57,100.00","$112,000.00","$150,000.00",,
University of Wyoming (UW),Western,"$44,500.00","$78,700.00","$41,500.00","$54,000.00","$105,000.00","$145,000.00",41.3147319,-105.5680787
Utah State University,Western,"$43,800.00","$78,700.00","$41,600.00","$55,400.00","$101,000.00","$132,000.00",41.7527021,-111.80873114532977
University of Oregon,Western,"$42,200.00","$78,400.00","$38,100.00","$56,200.00","$117,000.00","$186,000.00",44.04441965,-123.0717596399065
Montana State University - Bozeman,Western,"$46,600.00","$77,500.00","$40,200.00","$58,100.00","$111,000.00","$151,000.00",45.66381885,-111.07930568352012
Gonzaga University,Western,"$44,900.00","$76,000.00","$47,000.00","$57,400.00","$103,000.00","$138,000.00",47.666263400000005,-117.4030665711268
University of Hawaii,Western,"$43,800.00","$76,000.00","$40,400.00","$56,300.00","$104,000.00","$128,000.00",21.3320662,-157.9218882
Western Washington University,Western,"$42,700.00","$75,400.00","$41,300.00","$56,700.00","$99,200.00","$119,000.00",48.734140999999994,-122.48746401919874
Regis University,Western,"$48,300.00","$73,800.00","$41,000.00","$55,500.00","$94,800.00","$117,000.00",39.789711100000005,-105.03136946717461
Idaho State University,Western,"$44,900.00","$73,400.00","$35,400.00","$49,600.00","$101,000.00","$143,000.00",42.86256695,-112.43216272585818
"University of Alaska, Anchorage",Western,"$45,900.00","$72,600.00","$39,800.00","$56,600.00","$99,300.00","$137,000.00",61.19037895,-149.82232541071522
Lewis & Clark College,Western,"$38,900.00","$72,600.00","$38,200.00","$53,400.00","$104,000.00","$140,000.00",45.44850495,-122.67003839290959
University of Montana,Western,"$37,300.00","$71,900.00","$37,000.00","$51,500.00","$96,400.00","$138,000.00",46.8546101,-113.96552386834699
"University of Nevada, Las Vegas (UNLV)",Western,"$45,200.00","$71,600.00","$39,000.00","$52,400.00","$100,000.00","$128,000.00",36.10782625,-115.14186111825259
Portland State University (PSU),Western,"$42,600.00","$70,900.00","$40,700.00","$52,300.00","$94,400.00","$123,000.00",45.5122201,-122.6821135
Eastern Washington University,Western,"$38,600.00","$70,900.00","$36,000.00","$50,500.00","$93,100.00","$117,000.00",47.4915232,-117.58586751653681
Fort Lewis College,Western,"$42,000.00","$69,800.00",,"$55,000.00","$94,000.00",,37.27719755,-107.86763004941912
Boise State University (BSU),Western,"$40,800.00","$69,500.00","$37,400.00","$48,700.00","$87,500.00","$110,000.00",43.6041412,-116.20330587169997
Utah Valley State College,Western,"$42,400.00","$67,100.00",,"$44,100.00","$84,900.00",,40.27941055,-111.71788683218048
Evergreen State College,Western,"$39,500.00","$63,900.00","$38,800.00","$47,200.00","$91,600.00","$120,000.00",47.256489450000004,-122.45456224537094
Southern Utah University,Western,"$41,900.00","$56,500.00",,"$39,700.00","$78,400.00",,37.67529935,-113.07318396996399
Montana State University - Billings,Western,"$37,900.00","$50,600.00",,"$31,800.00","$78,500.00",,45.797005,-108.52155824759748
University of Notre Dame,Midwestern,"$56,300.00","$116,000.00","$66,400.00","$85,100.00","$163,000.00","$235,000.00",41.704567749999995,-86.23822026017265
University Of Chicago,Midwestern,"$53,400.00","$113,000.00","$62,200.00","$83,300.00","$174,000.00","$255,000.00",41.79139685,-87.60084387193544
Carleton College,Midwestern,"$47,500.00","$103,000.00",,"$69,400.00","$141,000.00",,44.47183535,-93.14145805901515
Illinois Institute of Technology (IIT),Midwestern,"$56,000.00","$97,800.00","$56,100.00","$77,400.00","$121,000.00","$165,000.00",,
Case Western Reserve University,Midwestern,"$56,200.00","$96,500.00","$54,900.00","$76,500.00","$123,000.00","$168,000.00",41.50138695,-81.60070216600491
University of Illinois at Urbana-Champaign (UIUC),Midwestern,"$52,900.00","$96,100.00","$48,200.00","$68,900.00","$132,000.00","$177,000.00",,
Northwestern University,Midwestern,"$52,700.00","$95,900.00","$51,900.00","$69,100.00","$144,000.00","$205,000.00",42.0557157,-87.67529454739416
University of Missouri - Rolla (UMR),Midwestern,"$57,100.00","$95,800.00","$67,600.00","$80,400.00","$122,000.00","$166,000.00",,
South Dakota School of Mines & Technology,Midwestern,"$55,800.00","$93,400.00","$71,500.00","$81,900.00","$122,000.00","$147,000.00",44.0739534,-103.20566215641483
University of Michigan,Midwestern,"$52,700.00","$93,000.00","$50,900.00","$69,400.00","$128,000.00","$182,000.00",42.2942142,-83.71003893509601
Purdue University,Midwestern,"$51,400.00","$90,500.00","$49,900.00","$67,400.00","$121,000.00","$168,000.00",40.430028,-86.92642114650494
Marquette University,Midwestern,"$48,500.00","$88,400.00","$49,500.00","$67,400.00","$121,000.00","$184,000.00",43.03888115,-87.93158327046632
DePauw University,Midwestern,"$41,400.00","$88,200.00","$49,500.00","$57,400.00","$133,000.00","$185,000.00",39.63804945,-86.86687365754466
University of Wisconsin (UW) - Madison,Midwestern,"$48,900.00","$87,800.00","$47,400.00","$62,400.00","$118,000.00","$170,000.00",43.080274450000005,-89.43095871991434
Bradley University,Midwestern,"$47,000.00","$87,300.00","$45,900.00","$64,900.00","$113,000.00","$151,000.00",40.6981131,-89.61551386208208
St. Olaf College,Midwestern,"$45,300.00","$86,200.00","$41,300.00","$61,000.00","$120,000.00","$185,000.00",44.4640025,-93.18717910671347
Michigan State University (MSU),Midwestern,"$46,300.00","$85,300.00","$44,200.00","$61,500.00","$119,000.00","$170,000.00",45.4219774,-83.8181266
DePaul University,Midwestern,"$46,400.00","$84,800.00","$50,300.00","$63,900.00","$115,000.00","$160,000.00",41.877786900000004,-87.62643126078129
Iowa State University,Midwestern,"$45,400.00","$84,600.00","$44,400.00","$60,000.00","$109,000.00","$147,000.00",42.02790455,-93.6446129710682
University of Minnesota,Midwestern,"$46,200.00","$84,200.00","$49,000.00","$63,200.00","$112,000.00","$148,000.00",48.3785292,-92.83116591263175
"Indiana University (IU), Bloomington",Midwestern,"$46,300.00","$84,000.00","$43,600.00","$60,400.00","$119,000.00","$178,000.00",39.1802358,-86.50935262731483
University of Iowa (UI),Midwestern,"$44,700.00","$83,900.00","$43,300.00","$61,100.00","$116,000.00","$163,000.00",,
Ohio State University (OSU),Midwestern,"$44,900.00","$83,700.00","$45,500.00","$60,700.00","$116,000.00","$162,000.00",40.08113710000001,-83.07348313724086
Denison University,Midwestern,"$42,000.00","$83,500.00",,"$62,100.00","$122,000.00",,40.07300505,-82.52248588003852
University of Illinois at Chicago,Midwestern,"$47,500.00","$81,700.00","$44,700.00","$58,800.00","$110,000.00","$146,000.00",41.868922299999994,-87.64858476010119
Oberlin College,Midwestern,"$43,400.00","$81,600.00",,"$46,400.00","$128,000.00",,41.2959178,-82.22146700795557
University of Kansas,Midwestern,"$42,400.00","$81,600.00","$44,800.00","$57,200.00","$115,000.00","$156,000.00",38.953491799999995,-95.26308879955823
University of Missouri - Columbia,Midwestern,"$41,700.00","$81,000.00","$43,500.00","$57,100.00","$111,000.00","$156,000.00",38.93641465,-92.32970301784542
University of Nebraska,Midwestern,"$45,700.00","$80,900.00","$42,200.00","$56,600.00","$113,000.00","$156,000.00",40.8229219,-96.70405844999999
Northern Illinois University (NIU),Midwestern,"$43,600.00","$80,800.00","$43,900.00","$60,200.00","$111,000.00","$161,000.00",,
Gustavus Adolphus College,Midwestern,"$44,500.00","$80,600.00",,"$49,300.00","$101,000.00",,44.3217827,-93.97404805319042
University of North Dakota,Midwestern,"$44,000.00","$80,600.00","$43,400.00","$56,400.00","$111,000.00","$157,000.00",47.926541150000006,-97.07212085037051
Kansas State University (KSU),Midwestern,"$43,300.00","$79,000.00","$37,200.00","$54,100.00","$106,000.00","$138,000.00",39.195595499999996,-96.5847930111279
University of Wisconsin (UW) - Platteville,Midwestern,"$45,800.00","$78,500.00","$48,400.00","$61,200.00","$100,000.00","$139,000.00",42.73085395,-90.49514462922993
Wittenberg University,Midwestern,"$39,200.00","$78,200.00",,"$54,100.00","$131,000.00",,39.9351075,-83.81305544869264
North Dakota State University (NDSU),Midwestern,"$45,100.00","$77,800.00","$39,000.00","$55,800.00","$100,000.00","$123,000.00",46.897155,-96.81826543221285
Grinnell College,Midwestern,"$42,600.00","$76,600.00",,"$65,100.00","$116,000.00",,41.75111985,-92.71984863278584
Wayne State University,Midwestern,"$42,800.00","$76,100.00","$40,100.00","$56,200.00","$101,000.00","$139,000.00",42.35720515,-83.07094978691399
University of Toledo,Midwestern,"$43,100.00","$75,900.00","$40,100.00","$54,100.00","$100,000.00","$133,000.00",41.6848027,-83.7456287
University of Wisconsin (UW) - Whitewater,Midwestern,"$40,800.00","$75,500.00","$38,200.00","$53,500.00","$99,300.00","$150,000.00",42.84435955,-88.74366642884807
Minnesota State University - Mankato,Midwestern,"$43,300.00","$74,700.00","$39,500.00","$53,800.00","$95,700.00","$140,000.00",44.1453537,-93.99775246558295
University of Wisconsin (UW) - Milwaukee,Midwestern,"$42,300.00","$74,600.00","$40,600.00","$54,000.00","$93,700.00","$123,000.00",43.077639000000005,-87.88194245036574
Western Michigan University (WMU),Midwestern,"$42,300.00","$73,800.00","$40,100.00","$52,500.00","$103,000.00","$135,000.00",,
South Dakota State University (SDSU),Midwestern,"$41,100.00","$73,500.00","$34,100.00","$49,900.00","$99,400.00","$129,000.00",,
Ohio University,Midwestern,"$42,200.00","$73,400.00","$36,600.00","$52,800.00","$106,000.00","$150,000.00",39.32300405,-82.10267681533172
Illinois State University,Midwestern,"$42,000.00","$73,400.00","$39,100.00","$55,200.00","$105,000.00","$142,000.00",40.51799375,-89.00846070697986
Cleveland State University,Midwestern,"$43,500.00","$73,100.00","$39,500.00","$51,600.00","$97,000.00","$137,000.00",41.50214445,-81.67516704866894
University of Nebraska at Omaha,Midwestern,"$41,500.00","$72,600.00","$39,500.00","$54,400.00","$97,400.00","$126,000.00",41.257793250000006,-96.01049708374254
Southern Illinois University Carbondale,Midwestern,"$43,000.00","$72,500.00","$38,300.00","$51,300.00","$99,300.00","$139,000.00",37.7083423,-89.22755559722675
Eastern Michigan University,Midwestern,"$40,300.00","$72,100.00","$37,900.00","$52,800.00","$95,400.00","$135,000.00",42.25224625,-83.6245615218778
Bowling Green State University,Midwestern,"$39,800.00","$72,100.00","$38,200.00","$51,800.00","$101,000.00","$146,000.00",41.3795005,-83.6297890246625
St. Cloud State University,Midwestern,"$41,800.00","$71,400.00","$38,700.00","$49,400.00","$101,000.00","$126,000.00",45.54781165,-94.15122845517467
University of Wisconsin (UW) - Parkside,Midwestern,"$40,700.00","$71,400.00","$40,900.00","$53,100.00","$84,900.00","$119,000.00",42.6468292,-87.85040546563803
University of Akron,Midwestern,"$41,100.00","$70,300.00","$40,600.00","$53,300.00","$95,200.00","$127,000.00",41.07573825,-81.51145320375983
Missouri State University (MSU),Midwestern,"$36,100.00","$69,500.00","$33,300.00","$46,900.00","$102,000.00","$134,000.00",,
University of Wisconsin (UW) - La Crosse,Midwestern,"$42,200.00","$69,300.00","$37,500.00","$47,200.00","$93,100.00","$133,000.00",43.8156316,-91.2314610845199
University of Wisconsin (UW) - Stout,Midwestern,"$43,600.00","$68,300.00","$40,900.00","$50,600.00","$91,600.00","$136,000.00",44.87171285,-91.92650334034423
Robert Morris College (RMC),Midwestern,"$38,500.00","$68,200.00","$37,300.00","$47,100.00","$95,000.00","$128,000.00",,
University of Missouri - St. Louis (UMSL),Midwestern,"$41,400.00","$67,100.00","$36,800.00","$49,600.00","$97,600.00","$144,000.00",38.70863975,-90.31171453683027
University of Wisconsin (UW) - Oshkosh,Midwestern,"$39,300.00","$66,400.00","$37,700.00","$49,700.00","$90,100.00","$138,000.00",44.02519995,-88.55108993473048
University of Missouri - Kansas City (UMKC),Midwestern,"$38,900.00","$65,800.00","$36,300.00","$48,100.00","$95,800.00","$124,000.00",,
University of Wisconsin (UW) - Eau Claire,Midwestern,"$41,400.00","$64,800.00","$35,000.00","$47,300.00","$93,100.00","$125,000.00",45.481483100000005,-91.74162143660122
Ball State University (BSU),Midwestern,"$39,100.00","$64,500.00","$35,500.00","$48,200.00","$89,300.00","$128,000.00",,
Park University,Midwestern,"$44,300.00","$64,300.00","$37,200.00","$45,600.00","$86,400.00","$113,000.00",39.18900875,-94.67252894147339
University of Wisconsin (UW) - Stevens Point,Midwestern,"$39,800.00","$64,000.00","$38,400.00","$45,100.00","$95,400.00","$128,000.00",44.53164045,-89.56946748200718
Kent State University,Midwestern,"$38,700.00","$62,600.00","$36,100.00","$45,800.00","$87,000.00","$124,000.00",41.1443582,-81.33982989345859
University of Wisconsin (UW) - Green Bay,Midwestern,"$35,800.00","$60,600.00","$35,500.00","$46,800.00","$81,800.00","$102,000.00",44.53284245,-87.9198843502084
Indiana Wesleyan University (IWU),Midwestern,"$39,800.00","$58,500.00","$39,600.00","$47,800.00","$78,600.00","$93,400.00",,
Pittsburg State University,Midwestern,"$40,400.00","$58,200.00","$25,600.00","$46,000.00","$84,600.00","$117,000.00",37.390464300000005,-94.69540633686316
Davenport University,Midwestern,"$39,700.00","$46,600.00","$31,600.00","$38,100.00","$65,600.00","$85,700.00",43.61331215,-84.1832637730429
Black Hills State University,Midwestern,"$35,300.00","$43,900.00",,"$32,200.00","$60,900.00",,44.49815045,-103.87285405608749
Rice University,Southern,"$64,000.00","$110,000.00","$55,900.00","$82,100.00","$141,000.00","$216,000.00",29.716791450000002,-95.40478113393792
Georgetown University,Southern,"$55,000.00","$110,000.00","$60,300.00","$85,800.00","$174,000.00","$248,000.00",38.90893925,-77.07457962060826
Duke University,Southern,"$58,900.00","$106,000.00","$56,000.00","$77,400.00","$149,000.00","$218,000.00",36.00015569999999,-78.94422972195878
Georgia Institute of Technology,Southern,"$58,300.00","$106,000.00","$67,200.00","$85,200.00","$137,000.00","$183,000.00",33.776033,-84.39884086001581
Washington and Lee University,Southern,"$53,600.00","$104,000.00",,"$82,800.00","$146,000.00",,37.7929993,-79.44773490479687
Vanderbilt University,Southern,"$51,200.00","$104,000.00","$49,900.00","$68,100.00","$147,000.00","$222,000.00",36.14380105,-86.80281889095295
Davidson College,Southern,"$46,100.00","$104,000.00",,"$70,500.00","$146,000.00",,35.5032193,-80.83393027613258
University of Virginia (UVA),Southern,"$52,700.00","$103,000.00","$52,200.00","$71,800.00","$146,000.00","$215,000.00",38.0410576,-78.50549960183568
George Washington University (GWU),Southern,"$47,000.00","$97,900.00","$48,400.00","$69,600.00","$132,000.00","$194,000.00",38.9008731,-77.05035
Texas A&M University,Southern,"$49,700.00","$96,100.00","$51,100.00","$71,300.00","$131,000.00","$171,000.00",30.6108618,-96.35206061388457
Tulane University,Southern,"$49,100.00","$95,800.00","$46,500.00","$64,400.00","$134,000.00","$185,000.00",29.94121955,-90.12010089179185
Virginia Polytechnic Institute and State University (Virginia Tech),Southern,"$53,500.00","$95,400.00","$50,600.00","$71,400.00","$124,000.00","$163,000.00",37.22192675,-80.42728184013652
"University of Maryland, College Park",Southern,"$52,000.00","$95,000.00","$50,400.00","$68,300.00","$126,000.00","$166,000.00",38.990412449999994,-76.9438585924238
University of Richmond,Southern,"$48,600.00","$94,600.00","$44,500.00","$59,400.00","$151,000.00","$211,000.00",37.57586225,-77.54129937158409
University of Texas (UT) - Austin,Southern,"$49,700.00","$93,900.00","$50,100.00","$67,400.00","$129,000.00","$188,000.00",30.284458,-97.7342106
Emory University,Southern,"$52,000.00","$91,600.00","$52,500.00","$63,300.00","$128,000.00","$192,000.00",33.80045465,-84.31723780466274
"American University, Washington D.C.",Southern,"$45,300.00","$90,800.00","$45,200.00","$62,400.00","$134,000.00","$169,000.00",38.93804505,-77.08939223651926
University of Tulsa,Southern,"$42,400.00","$88,700.00","$42,300.00","$60,300.00","$120,000.00","$197,000.00",36.1523306,-95.94596023877983
Baylor University,Southern,"$48,300.00","$88,600.00","$46,300.00","$60,700.00","$130,000.00","$200,000.00",31.55043405,-97.1102905567766
University of Florida (UF),Southern,"$47,100.00","$87,900.00","$45,400.00","$62,900.00","$120,000.00","$172,000.00",26.08435255,-80.24017228339414
Louisiana State University (LSU),Southern,"$46,900.00","$87,800.00","$43,700.00","$61,300.00","$120,000.00","$165,000.00",30.405761849999998,-91.18597450265686
George Mason University,Southern,"$47,800.00","$86,900.00","$51,300.00","$67,200.00","$114,000.00","$150,000.00",38.83133325,-77.30798838879116
Clemson University,Southern,"$48,400.00","$86,000.00","$50,500.00","$61,800.00","$111,000.00","$150,000.00",34.66869155,-82.83743475607795
University of Georgia (UGA),Southern,"$44,100.00","$86,000.00","$43,100.00","$57,800.00","$118,000.00","$164,000.00",,
Auburn University,Southern,"$45,400.00","$84,700.00","$45,400.00","$62,700.00","$109,000.00","$145,000.00",32.591987700000004,-85.4959487362446
University of Delaware,Southern,"$45,900.00","$84,500.00","$44,500.00","$64,000.00","$119,000.00","$165,000.00",39.6803338,-75.75307489920786
Randolph-Macon College,Southern,"$42,600.00","$83,600.00",,"$54,100.00","$123,000.00",,37.762510500000005,-77.47954212782594
North Carolina State University (NCSU),Southern,"$47,200.00","$83,300.00","$49,200.00","$64,800.00","$112,000.00","$153,000.00",50.0864618,14.4189931
University of Oklahoma,Southern,"$44,700.00","$82,900.00","$41,200.00","$60,300.00","$114,000.00","$167,000.00",35.1959878,-97.44570827599858
University of Arkansas,Southern,"$44,100.00","$82,800.00","$43,200.00","$60,700.00","$113,000.00","$160,000.00",36.09352375,-94.17708979491738
University of Alabama at Huntsville (UAH),Southern,"$43,100.00","$82,700.00","$46,100.00","$67,800.00","$106,000.00","$132,000.00",,
Howard University,Southern,"$46,900.00","$81,800.00","$43,300.00","$60,000.00","$109,000.00","$138,000.00",38.921897200000004,-77.0195931491908
University of North Carolina at Chapel Hill (UNCH),Southern,"$42,900.00","$81,500.00","$43,400.00","$57,500.00","$117,000.00","$155,000.00",,
"University of Alabama, Tuscaloosa",Southern,"$41,300.00","$81,400.00","$40,100.00","$56,500.00","$117,000.00","$161,000.00",33.21208215,-87.53967345126999
University of Texas at Arlington (UTA),Southern,"$45,400.00","$80,800.00","$46,400.00","$61,200.00","$106,000.00","$138,000.00",32.728471299999995,-97.11202127009975
Oklahoma State University,Southern,"$42,800.00","$80,700.00","$40,100.00","$56,500.00","$114,000.00","$151,000.00",36.128476750000004,-97.08398055028107
Tennessee Technological University,Southern,"$46,200.00","$80,000.00","$42,100.00","$62,600.00","$99,500.00","$121,000.00",36.17487355,-85.50890513995023
University of Houston (UH),Southern,"$46,000.00","$79,900.00","$42,000.00","$56,200.00","$106,000.00","$141,000.00",29.7207902,-95.34406271491369
University of Mississippi,Southern,"$41,400.00","$79,700.00","$40,400.00","$53,500.00","$108,000.00","$186,000.00",34.3646125,-89.53963491020966
Lamar University,Southern,"$46,500.00","$79,400.00","$38,700.00","$51,600.00","$114,000.00","$158,000.00",30.03889465,-94.07589293260585
Mississippi State University (MSU),Southern,"$44,500.00","$79,300.00","$43,300.00","$58,800.00","$108,000.00","$151,000.00",32.36845735,-88.73705907206661
University of Kentucky (UK),Southern,"$42,800.00","$78,300.00","$43,000.00","$57,300.00","$107,000.00","$149,000.00",38.0326696,-84.50765879834395
Texas Christian University (TCU),Southern,"$45,100.00","$78,100.00","$42,600.00","$56,600.00","$122,000.00","$183,000.00",,
West Virginia University (WVU),Southern,"$43,100.00","$78,100.00","$39,700.00","$55,700.00","$106,000.00","$141,000.00",39.636067100000005,-79.95372434172734
University of Maryland Baltimore County (UMBC),Southern,"$47,000.00","$77,800.00","$46,900.00","$59,100.00","$105,000.00","$130,000.00",39.252376999999996,-76.70891806688415
University of Louisiana (UL) at Lafayette,Southern,"$41,100.00","$76,300.00","$42,000.00","$54,500.00","$107,000.00","$163,000.00",,
Florida International University (FIU),Southern,"$43,200.00","$75,500.00","$40,500.00","$55,800.00","$98,200.00","$136,000.00",25.7553898,-80.3762832779774
University of Tennessee,Southern,"$43,800.00","$74,600.00","$41,900.00","$53,200.00","$106,000.00","$153,000.00",35.9515612,-83.93087998929315
University of Arkansas - Monticello (UAM),Southern,"$39,200.00","$74,500.00",,"$46,100.00","$110,000.00",,,
University of North Carolina at Charlotte (UNCC),Southern,"$43,100.00","$74,000.00","$38,200.00","$53,200.00","$99,500.00","$133,000.00",,
Georgia State University,Southern,"$41,800.00","$74,000.00","$43,000.00","$55,300.00","$99,900.00","$145,000.00",33.7535889,-84.38542086620515
LeTourneau University,Southern,"$49,500.00","$73,800.00","$41,200.00","$52,700.00","$95,200.00","$126,000.00",32.4666214,-94.72641094982392
Florida State University (FSU),Southern,"$42,100.00","$73,000.00","$39,600.00","$52,800.00","$107,000.00","$156,000.00",,
University of Texas at El Paso (UTEP),Southern,"$43,400.00","$72,100.00","$37,700.00","$50,400.00","$99,500.00","$133,000.00",31.77570475,-106.50628747547725
University of Central Florida (UCF),Southern,"$42,600.00","$71,700.00","$39,500.00","$51,500.00","$98,400.00","$125,000.00",,
University of South Carolina,Southern,"$40,000.00","$71,700.00","$36,300.00","$49,900.00","$98,400.00","$131,000.00",33.99287595,-81.02675376219187
Florida Atlantic University (FAU),Southern,"$42,600.00","$71,100.00","$40,700.00","$53,000.00","$99,500.00","$137,000.00",26.3743445,-80.10272360134499
University of South Florida (USF),Southern,"$41,100.00","$71,100.00","$39,600.00","$51,500.00","$98,100.00","$131,000.00",28.0599999,-82.41383619025117
University of Texas at San Antonio (UTSA),Southern,"$42,500.00","$70,700.00","$39,100.00","$49,800.00","$92,700.00","$121,000.00",29.583331049999998,-98.6194450505688
University of Alabama at Birmingham (UAB),Southern,"$39,200.00","$70,100.00","$43,000.00","$53,400.00","$91,400.00","$125,000.00",33.5016153,-86.80604756076488
University of Memphis (U of M),Southern,"$41,400.00","$69,700.00","$36,100.00","$49,100.00","$93,500.00","$127,000.00",,
Appalachian State University,Southern,"$40,400.00","$69,100.00","$37,200.00","$50,400.00","$90,800.00","$115,000.00",36.212501849999995,-81.68510065980425
Virginia Commonwealth University (VCU),Southern,"$42,000.00","$68,400.00","$37,400.00","$51,900.00","$100,000.00","$123,000.00",37.546124649999996,-77.45406089907547
East Carolina University (ECU),Southern,"$40,200.00","$67,500.00","$38,400.00","$52,000.00","$98,700.00","$151,000.00",35.607376849999994,-77.36715661171404
Western Carolina University,Southern,"$36,900.00","$66,600.00","$39,000.00","$49,500.00","$94,400.00","$133,000.00",35.3100146,-83.199040215329
Jacksonville University,Southern,"$46,700.00","$66,200.00","$36,700.00","$47,200.00","$88,500.00","$121,000.00",30.3537227,-81.60730605405212
University of North Carolina at Wilmington (UNCW),Southern,"$37,500.00","$64,400.00","$32,100.00","$46,600.00","$97,100.00","$129,000.00",,
Oklahoma City University,Southern,"$40,000.00","$64,300.00",,"$45,400.00","$80,600.00",,35.496315249999995,-97.54122412051667
Arkansas State University (ASU),Southern,"$38,700.00","$63,300.00","$33,600.00","$45,300.00","$83,900.00","$118,000.00",35.8410305,-90.6796362
Tarleton State University (TSU),Southern,"$40,800.00","$62,400.00","$32,100.00","$47,400.00","$80,400.00","$126,000.00",,
Morehead State University,Southern,"$34,800.00","$60,600.00","$34,300.00","$46,500.00","$72,000.00","$91,300.00",38.1867483,-83.4332396
Mississippi College,Southern,"$35,400.00","$60,400.00",,"$43,900.00","$80,400.00",,32.3354174,-90.33188238452229
Dallas Baptist University,Southern,"$39,400.00","$60,200.00","$38,500.00","$50,300.00","$81,800.00","$98,100.00",32.7108312,-96.94676797254901
Austin Peay State University,Southern,"$37,700.00","$59,200.00","$32,200.00","$40,500.00","$73,900.00","$96,200.00",36.53429654999999,-87.35430854440321
Saint Leo University,Southern,"$40,900.00","$57,800.00","$34,400.00","$41,800.00","$80,600.00","$113,000.00",28.338539400000002,-82.25807054363955
Tusculum College,Southern,"$36,900.00","$55,500.00","$36,200.00","$43,000.00","$87,300.00","$124,000.00",36.180781249999995,-82.75702030871838
Virginia Wesleyan College (VWC),Southern,"$34,600.00","$54,900.00",,"$37,100.00","$88,900.00",,,
"Lee University (Cleveland, TN)",Southern,"$34,500.00","$53,900.00",,"$44,500.00","$76,800.00",,35.1660778,-84.86925196171154
Florida Metropolitan University (FMU),Southern,"$36,600.00","$51,000.00","$32,800.00","$36,800.00","$70,400.00","$102,000.00",,
Dartmouth College,Northeastern,"$58,000.00","$134,000.00","$63,100.00","$90,200.00","$234,000.00","$321,000.00",43.70526735,-72.29052293092106
Princeton University,Northeastern,"$66,500.00","$131,000.00","$68,900.00","$100,000.00","$190,000.00","$261,000.00",40.33867515,-74.65836549131683
Massachusetts Institute of Technology (MIT),Northeastern,"$72,200.00","$126,000.00","$76,800.00","$99,200.00","$168,000.00","$220,000.00",42.3582529,-71.0966272383055
Yale University,Northeastern,"$59,100.00","$126,000.00","$58,000.00","$80,600.00","$198,000.00","$326,000.00",41.25713055,-72.98966960152231
Harvard University,Northeastern,"$63,400.00","$124,000.00","$54,800.00","$86,200.00","$179,000.00","$288,000.00",42.36790855,-71.12678237443698
University of Pennsylvania,Northeastern,"$60,900.00","$120,000.00","$55,900.00","$79,200.00","$192,000.00","$282,000.00",39.9493382,-75.1896439962691
"Polytechnic University of New York, Brooklyn",Northeastern,"$62,400.00","$114,000.00","$66,800.00","$94,300.00","$143,000.00","$190,000.00",,
Cooper Union,Northeastern,"$62,200.00","$114,000.00",,"$80,200.00","$142,000.00",,40.7298362,-73.99026621202665
Worcester Polytechnic Institute (WPI),Northeastern,"$61,000.00","$114,000.00","$80,000.00","$91,200.00","$137,000.00","$180,000.00",42.274315,-71.80845674552586
Carnegie Mellon University (CMU),Northeastern,"$61,800.00","$111,000.00","$63,300.00","$80,100.00","$150,000.00","$209,000.00",40.444189699999995,-79.94271918393466
Rensselaer Polytechnic Institute (RPI),Northeastern,"$61,100.00","$110,000.00","$71,600.00","$85,500.00","$140,000.00","$182,000.00",,
Cornell University,Northeastern,"$60,300.00","$110,000.00","$56,800.00","$79,800.00","$160,000.00","$210,000.00",42.4529076,-76.48008423030923
Bucknell University,Northeastern,"$54,100.00","$110,000.00","$62,800.00","$80,600.00","$156,000.00","$251,000.00",40.9515356,-76.8879603368278
Brown University,Northeastern,"$56,200.00","$109,000.00","$55,400.00","$74,400.00","$159,000.00","$228,000.00",41.8186395,-71.4088008716793
Colgate University,Northeastern,"$52,800.00","$108,000.00","$60,000.00","$76,700.00","$167,000.00","$265,000.00",42.815403700000005,-75.53958155911818
Columbia University,Northeastern,"$59,400.00","$107,000.00","$50,300.00","$71,900.00","$161,000.00","$241,000.00",40.80775585,-73.96164946987652
Amherst College,Northeastern,"$54,500.00","$107,000.00",,"$84,900.00","$162,000.00",,42.3703768,-72.5160691823344
Lafayette College,Northeastern,"$53,900.00","$107,000.00","$70,600.00","$79,300.00","$144,000.00","$204,000.00",40.6986835,-75.20924604652205
Bowdoin College,Northeastern,"$48,100.00","$107,000.00",,"$74,600.00","$146,000.00",,43.908173500000004,-69.96048055054536
College of the Holy Cross,Northeastern,"$50,200.00","$106,000.00",,"$65,600.00","$143,000.00",,42.23668645,-71.80702483708313
Stevens Institute of Technology,Northeastern,"$60,600.00","$105,000.00","$68,700.00","$81,900.00","$138,000.00","$185,000.00",40.744809599999996,-74.0252392276461
Lehigh University,Northeastern,"$59,200.00","$105,000.00","$69,500.00","$85,000.00","$160,000.00","$229,000.00",40.6068028,-75.3782488
Swarthmore College,Northeastern,"$49,700.00","$104,000.00",,"$67,200.00","$167,000.00",,39.90360285,-75.3537373118458
Boston College,Northeastern,"$52,700.00","$103,000.00","$48,900.00","$70,000.00","$143,000.00","$195,000.00",42.3354481,-71.16826648999114
Williams College,Northeastern,"$51,700.00","$102,000.00",,"$76,400.00","$143,000.00",,42.7130236,-73.2030082
Villanova University,Northeastern,"$55,800.00","$101,000.00","$56,800.00","$76,200.00","$156,000.00","$226,000.00",40.0367774,-75.34202332002798
Fordham University,Northeastern,"$47,800.00","$99,900.00","$48,600.00","$65,900.00","$142,000.00","$198,000.00",40.861734350000006,-73.88603169298054
"Wesleyan University (Middletown, Connecticut)",Northeastern,"$46,500.00","$97,900.00","$42,000.00","$62,500.00","$126,000.00","$215,000.00",41.5559033,-72.65598837890627
Wentworth Institute of Technology,Northeastern,"$53,000.00","$96,700.00","$55,200.00","$74,000.00","$117,000.00","$153,000.00",42.33659295,-71.09535993169611
Bates College,Northeastern,"$47,300.00","$96,500.00",,"$60,700.00","$162,000.00",,44.1060827,-70.20232209196428
Binghamton University,Northeastern,"$53,600.00","$95,900.00","$50,900.00","$71,200.00","$146,000.00","$201,000.00",42.08779975,-75.97066065614858
Union College,Northeastern,"$47,200.00","$95,800.00","$48,700.00","$75,200.00","$135,000.00","$230,000.00",42.8175752,-73.92839165453219
New York University (NYU),Northeastern,"$50,300.00","$95,600.00","$47,500.00","$65,000.00","$142,000.00","$216,000.00",40.72925325,-73.99625393609625
Vassar College,Northeastern,"$46,000.00","$94,600.00",,"$60,600.00","$123,000.00",,41.68616634999999,-73.89338274119729
Middlebury College,Northeastern,"$47,700.00","$94,200.00",,"$69,100.00","$129,000.00",,44.00366955,-73.17295278964315
Mount Holyoke College,Northeastern,"$42,400.00","$94,200.00",,"$57,100.00","$131,000.00",,42.25532845,-72.56966884397315
Boston University,Northeastern,"$49,000.00","$93,900.00","$48,000.00","$64,900.00","$130,000.00","$193,000.00",42.350189400000005,-71.10070992742425
Drexel University,Northeastern,"$53,400.00","$93,500.00","$54,900.00","$72,500.00","$122,000.00","$161,000.00",39.9574,-75.19026656335703
"St. John's University, New York",Northeastern,"$48,000.00","$93,400.00","$48,000.00","$65,400.00","$124,000.00","$181,000.00",40.729934,-73.9900686
Long Island University,Northeastern,"$47,300.00","$93,200.00","$46,300.00","$62,100.00","$122,000.00","$169,000.00",40.6911022,-73.98039648663554
Stony Brook University,Northeastern,"$49,500.00","$93,000.00","$47,200.00","$67,100.00","$129,000.00","$181,000.00",40.9090809,-73.12055180275716
Franklin and Marshall College,Northeastern,"$49,100.00","$92,800.00",,"$55,800.00","$185,000.00",,,
Hofstra University,Northeastern,"$46,800.00","$92,700.00","$48,900.00","$67,000.00","$135,000.00","$189,000.00",40.71702415,-73.60004905339514
State University of New York (SUNY) at Albany,Northeastern,"$44,500.00","$92,200.00","$47,000.00","$63,100.00","$135,000.00","$209,000.00",,
Rutgers University,Northeastern,"$50,300.00","$91,800.00","$48,100.00","$65,100.00","$128,000.00","$176,000.00",40.74068705,-74.17488897617616
Pratt Institute,Northeastern,"$43,800.00","$89,900.00","$48,600.00","$65,400.00","$123,000.00","$155,000.00",40.69133825,-73.96301632978006
Pace University,Northeastern,"$53,200.00","$89,700.00","$44,200.00","$65,400.00","$129,000.00","$187,000.00",40.711599199999995,-74.00621595055304
Seton Hall University,Northeastern,"$48,900.00","$89,200.00","$55,700.00","$70,600.00","$133,000.00","$195,000.00",40.7433314,-74.246892079833
Rider University,Northeastern,"$43,600.00","$88,900.00","$47,100.00","$63,100.00","$127,000.00","$150,000.00",40.28155125,-74.74044673656789
University of Connecticut (UConn),Northeastern,"$48,000.00","$88,800.00","$46,100.00","$66,400.00","$120,000.00","$162,000.00",41.82175755,-72.24277535505323
Providence College,Northeastern,"$48,000.00","$88,600.00","$42,800.00","$62,900.00","$138,000.00","$194,000.00",41.8442938,-71.43548862523096
University of Massachusetts (UMass) - Amherst,Northeastern,"$46,600.00","$88,200.00","$43,100.00","$61,300.00","$122,000.00","$168,000.00",42.3869382,-72.52991477067445
Ithaca College,Northeastern,"$42,700.00","$87,400.00","$50,200.00","$62,400.00","$128,000.00","$174,000.00",42.419703549999994,-76.49832945700278
University of Massachusetts (UMass) - Lowell,Northeastern,"$45,400.00","$86,600.00","$50,900.00","$65,000.00","$113,000.00","$158,000.00",42.651909700000004,-71.31736283953776
Northeastern University,Northeastern,"$50,500.00","$86,400.00","$47,100.00","$62,700.00","$117,000.00","$159,000.00",42.3390301,-71.08791294953176
Syracuse University,Northeastern,"$45,700.00","$85,900.00","$46,400.00","$59,400.00","$119,000.00","$178,000.00",43.017112850000004,-76.11855360009726
Colby College,Northeastern,"$46,400.00","$85,800.00",,"$63,500.00","$129,000.00",,44.5614627,-69.65848734910011
Gettysburg College,Northeastern,"$44,700.00","$85,800.00",,"$66,300.00","$132,000.00",,39.837468799999996,-77.23964053600594
Pennsylvania State University (PSU),Northeastern,"$49,900.00","$85,700.00","$46,300.00","$62,000.00","$117,000.00","$160,000.00",40.11531205,-75.11086712018366
University of Rhode Island (URI),Northeastern,"$43,900.00","$85,300.00","$45,400.00","$60,100.00","$112,000.00","$157,000.00",,
Siena College,Northeastern,"$45,500.00","$85,200.00","$38,700.00","$58,400.00","$129,000.00","$189,000.00",42.719265899999996,-73.7511920123242
La Salle University (Philadelphia),Northeastern,"$43,400.00","$84,700.00","$45,300.00","$57,500.00","$106,000.00","$151,000.00",40.0374268,-75.15402196552299
Rochester Institute of Technology (RIT),Northeastern,"$48,900.00","$84,600.00","$45,000.00","$62,100.00","$112,000.00","$159,000.00",43.08248835,-77.67291102378641
Duquesne University,Northeastern,"$40,700.00","$84,400.00","$42,600.00","$59,500.00","$107,000.00","$131,000.00",40.43852085,-79.99435360018356
State University of New York (SUNY) at Farmingdale,Northeastern,"$47,300.00","$84,200.00","$50,200.00","$59,800.00","$110,000.00","$162,000.00",,
Smith College,Northeastern,"$44,000.00","$83,900.00","$45,100.00","$59,800.00","$129,000.00","$184,000.00",42.31622385,-72.64039314741159
Hamilton College,Northeastern,"$49,200.00","$83,700.00",,"$51,900.00","$123,000.00",,43.0537974,-75.40689907682119
Wellesley College,Northeastern,"$42,800.00","$83,500.00",,"$58,600.00","$125,000.00",,42.291776049999996,-71.3032751636105
Widener University,Northeastern,"$52,900.00","$83,400.00","$42,600.00","$61,400.00","$106,000.00","$138,000.00",39.8606395,-75.35659321419246
University of New Haven,Northeastern,"$44,400.00","$82,900.00","$48,500.00","$66,100.00","$113,000.00","$157,000.00",41.29091365,-72.96263883692575
Dowling College,Northeastern,"$41,100.00","$82,800.00","$46,500.00","$60,600.00","$117,000.00","$142,000.00",30.57391,-96.3454718
University of Vermont (UVM),Northeastern,"$44,800.00","$82,700.00","$44,700.00","$58,000.00","$122,000.00","$194,000.00",,
State University of New York (SUNY) at Buffalo,Northeastern,"$46,200.00","$81,700.00","$45,900.00","$61,400.00","$110,000.00","$147,000.00",43.00188805,-78.78521350495271
State University of New York (SUNY) at Geneseo,Northeastern,"$42,300.00","$81,300.00","$39,300.00","$47,600.00","$117,000.00","$173,000.00",,
Fashion Institute of Technology,Northeastern,"$42,800.00","$81,000.00","$38,800.00","$60,500.00","$106,000.00","$138,000.00",40.747115949999994,-73.99460239790321
Philadelphia University,Northeastern,"$45,100.00","$80,300.00","$45,800.00","$61,900.00","$108,000.00","$141,000.00",40.02048,-75.19241
Ursinus College,Northeastern,"$42,100.00","$80,000.00","$35,600.00","$54,300.00","$100,000.00","$160,000.00",40.1954088,-75.45531988939918
Adelphi University,Northeastern,"$40,600.00","$79,200.00","$44,200.00","$54,800.00","$114,000.00","$160,000.00",40.7197638,-73.65197185396391
Juniata College,Northeastern,"$41,800.00","$78,900.00",,"$67,200.00","$110,000.00",,40.501225500000004,-78.01516280060704
Fairleigh Dickinson University,Northeastern,"$45,700.00","$78,700.00","$40,200.00","$56,300.00","$112,000.00","$171,000.00",40.89807275,-74.0307211402726
University of New Hampshire (UNH),Northeastern,"$41,800.00","$78,300.00","$41,700.00","$56,400.00","$114,000.00","$147,000.00",,
University of Massachusetts (UMass) - Boston,Northeastern,"$45,600.00","$78,200.00","$36,300.00","$53,800.00","$109,000.00","$151,000.00",,
State University of New York (SUNY) at Oswego,Northeastern,"$38,000.00","$77,800.00","$40,400.00","$53,000.00","$115,000.00","$169,000.00",,
University of Massachusetts (UMass) - Dartmouth,Northeastern,"$43,200.00","$77,700.00","$43,300.00","$56,200.00","$107,000.00","$132,000.00",,
State University of New York (SUNY) at Oneonta,Northeastern,"$37,500.00","$76,700.00","$40,000.00","$54,300.00","$97,700.00","$155,000.00",,
Quinnipiac University,Northeastern,"$43,000.00","$76,500.00","$47,900.00","$57,400.00","$117,000.00","$155,000.00",41.41860555,-72.8937264453806
State University of New York (SUNY) at Plattsburgh,Northeastern,"$40,800.00","$76,200.00","$38,400.00","$54,100.00","$105,000.00","$136,000.00",44.68359335,-73.47736652771775
Sacred Heart University,Northeastern,"$46,000.00","$75,300.00","$39,700.00","$54,800.00","$105,000.00","$150,000.00",41.222597449999995,-73.24446729633347
Skidmore College,Northeastern,"$41,600.00","$74,600.00",,"$42,800.00","$147,000.00",,43.098732,-73.783985
Moravian College,Northeastern,"$42,500.00","$74,400.00",,"$56,700.00","$94,900.00",,38.552393,-121.395532
Penn State - Harrisburg,Northeastern,"$45,700.00","$74,000.00","$44,000.00","$53,100.00","$104,000.00","$150,000.00",40.2030819,-76.74257485028227
Suffolk University,Northeastern,"$42,100.00","$74,000.00","$48,700.00","$57,800.00","$95,100.00","$145,000.00",42.37251045,-71.03068355781761
Fitchburg State College,Northeastern,"$42,400.00","$72,600.00","$43,300.00","$56,100.00","$99,600.00","$151,000.00",,
Roger Williams University,Northeastern,"$42,000.00","$72,300.00","$39,800.00","$48,500.00","$102,000.00","$138,000.00",41.64921,-71.2619371
University Of Maine,Northeastern,"$41,200.00","$72,100.00","$41,700.00","$55,600.00","$99,300.00","$141,000.00",17.6613447,121.754232
State University of New York (SUNY) at Potsdam,Northeastern,"$38,000.00","$70,300.00","$35,100.00","$51,200.00","$100,000.00","$179,000.00",44.6606505,-74.97047884436499
Niagara University,Northeastern,"$36,900.00","$69,700.00","$44,000.00","$57,000.00","$92,000.00","$128,000.00",43.136603050000005,-79.03488917595874
State University of New York (SUNY) at Fredonia,Northeastern,"$37,800.00","$66,200.00","$32,800.00","$44,200.00","$93,300.00","$181,000.00",42.4509517,-79.3361858
University of Southern Maine,Northeastern,"$39,400.00","$63,600.00","$40,400.00","$47,900.00","$85,700.00","$117,000.00",43.66213935,-70.27519394192058
Mercy College,Northeastern,"$43,700.00","$62,600.00","$35,600.00","$47,300.00","$99,000.00","$134,000.00",41.02156265,-73.87446425294797
